name,latitude,longitude,address,postcode,phone,alternative_names,type,opening_hours,website,description,features,
The Dove,51.542123,-0.076532,"24-28 Broadway Market, London",E8 4QJ,2072753617,Dove Freehouse,pub,Mo-Th 12:00-23:00; Fr-Sa 12:00-00:00; Su 12:00-22:30,https://dovepubs.com,Traditional pub with Belgian beer selection and outdoor seating,"garden,real_ale,craft_beer,dog_friendly,food",
The Pembury Tavern,51.547123,-0.055876,"90 Amhurst Road, London",E8 1JH,2089850101,The Pembury,pub,Mo-Th 12:00-23:00; Fr-Sa 12:00-00:00; Su 12:00-22:30,https://pemburytavern.co.uk,Spacious corner pub with craft beers and pizza,"craft_beer,food,board_games,live_music,quiz_night",
The Old Ship,51.536789,-0.062345,"2 Sylvester Path, London",E8 1EN,2072541010,The Ship,pub,Mo-Sa 12:00-23:00; Su 12:00-22:30,https://theoldshipinn.co.uk,Cozy traditional pub with fireplace and Sunday roasts,"real_ale,fireplace,sunday_roast,dog_friendly",
Night Tales,51.538765,-0.073421,"14 Bohemia Place, London",E8 1DU,2071754321,,bar,Th-Fr 18:00-00:00; Sa 14:00-00:00; Su 14:00-22:00,https://nighttales.co.uk,Vibrant bar and nightlife venue with outdoor space and DJs,"cocktails,outdoor_seating,dj,street_food,nightlife",
The Kenton,51.551234,-0.078901,"38 Kenton Road, London",E9 7AB,2072543214,,pub,Mo-Th 16:00-23:00; Fr-Sa 12:00-00:00; Su 12:00-22:30,https://thekentonpub.co.uk,Friendly neighborhood pub with quiz nights and local beers,"quiz_night,real_ale,live_music,dog_friendly",